% program   : RTKPOST ver.2.4.2
% inp file  : P:\Simpson_share\Projects\S900_DirectGeoreferencing\Data\20180305_TestFlight_2\Flight1_Mission_16000\Trajectory\0016-00000.obs
% inp file  : P:\Simpson_share\Projects\S900_DirectGeoreferencing\Data\20180305_TestFlight_2\Flight1_Mission_16000\rinex\corv065b.18o
% inp file  : P:\Simpson_share\Projects\S900_DirectGeoreferencing\Data\20180305_TestFlight_2\Flight1_Mission_16000\Trajectory\0016-00000.nav
% obs start : 2018/03/06 01:51:19.4 GPST (week1991 179479.4s)
% obs end   : 2018/03/06 02:00:45.6 GPST (week1991 180045.6s)
% pos mode  : kinematic
% freqs     : L1+L2
% solution  : combined
% elev mask : 10.0 deg
% dynamics  : off
% tidecorr  : off
% ionos opt : broadcast
% tropo opt : saastamoinen
% ephemeris : broadcast
% navi sys  : gps glonass
% amb res   : continuous
% amb glo   : on
% val thres : 3.0
% antenna1  :                       ( 0.0000  0.0000  0.0000)
% antenna2  :                       ( 0.0000  0.0000  0.0000)
% ref pos   : 44.585531376 -123.304588037   109.0203
%
% (lat/lon/height=WGS84/ellipsoidal,Q=1:fix,2:float,3:sbas,4:dgps,5:single,6:ppp,ns=# of satellites)
%  GPST                  latitude(deg) longitude(deg)  height(m)   Q  ns   sdn(m)   sde(m)   sdu(m)  sdne(m)  sdeu(m)  sdun(m) age(s)  ratio
2018/03/06 01:51:19.400   44.565393322 -123.271943852    45.2336   2   5   1.3542   0.8477   1.9300   0.5554  -0.9123  -1.4582   0.40    1.7
2018/03/06 01:51:19.500   44.565390795 -123.271942638    45.2949   2   5   0.0138   0.0086   0.0197   0.0056  -0.0093  -0.0149   0.50    3.1
2018/03/06 01:51:19.600   44.565378691 -123.271964746    49.3655   2   5   0.0213   0.0142   0.0284   0.0087  -0.0131  -0.0213   0.60    2.2
2018/03/06 01:51:19.700   44.565378671 -123.271964775    49.3696   2   5   0.0213   0.0142   0.0283   0.0086  -0.0131  -0.0213   0.70    2.5
2018/03/06 01:51:19.800   44.565399979 -123.271936541    43.9345   1   5   0.0197   0.0123   0.0281   0.0081  -0.0133  -0.0213   0.80    5.1
2018/03/06 01:51:19.900   44.565400052 -123.271936524    43.9241   1   5   0.0198   0.0124   0.0282   0.0082  -0.0134  -0.0214   0.90    4.2
2018/03/06 01:51:20.000   44.565378700 -123.271964740    49.3624   2   5   0.0213   0.0142   0.0283   0.0086  -0.0131  -0.0212   0.00    2.4
2018/03/06 01:51:20.100   44.565378644 -123.271964753    49.3695   2   5   0.0216   0.0143   0.0288   0.0089  -0.0134  -0.0217   0.10    1.2
2018/03/06 01:51:20.200   44.565397757 -123.271933646    43.3587   1   5   0.0195   0.0122   0.0277   0.0079  -0.0131  -0.0209   0.20    3.1
2018/03/06 01:51:20.300   44.565397720 -123.271933659    43.3661   1   5   0.0195   0.0122   0.0277   0.0079  -0.0131  -0.0210   0.30    9.3
2018/03/06 01:51:20.400   44.565397723 -123.271933651    43.3633   1   5   0.0195   0.0122   0.0278   0.0079  -0.0131  -0.0210   0.40    7.9
2018/03/06 01:51:20.500   44.565378690 -123.271964753    49.3674   2   5   0.0214   0.0142   0.0284   0.0087  -0.0132  -0.0214   0.50    2.9
2018/03/06 01:51:20.600   44.565378668 -123.271964754    49.3692   2   5   0.0213   0.0142   0.0284   0.0087  -0.0131  -0.0213   0.60    1.6
2018/03/06 01:51:20.700   44.565378675 -123.271964747    49.3716   2   5   0.0213   0.0142   0.0283   0.0086  -0.0131  -0.0213   0.70    1.7
2018/03/06 01:51:20.800   44.565378668 -123.271964765    49.3712   2   5   0.0213   0.0142   0.0283   0.0086  -0.0131  -0.0212   0.80    2.3
2018/03/06 01:51:20.900   44.565378713 -123.271964755    49.3671   2   5   0.0212   0.0142   0.0283   0.0086  -0.0130  -0.0212   0.90    2.5
2018/03/06 01:51:21.000   44.565378685 -123.271964785    49.3726   2   5   0.0212   0.0142   0.0283   0.0086  -0.0130  -0.0212   0.00    1.3
2018/03/06 01:51:21.100   44.565378619 -123.271964823    49.3812   2   5   0.0216   0.0143   0.0288   0.0089  -0.0134  -0.0217   0.10    1.4
2018/03/06 01:51:21.200   44.565378652 -123.271964776    49.3730   2   5   0.0215   0.0143   0.0287   0.0088  -0.0133  -0.0216   0.20    1.3
2018/03/06 01:51:21.300   44.565378582 -123.271964824    49.3861   2   5   0.0214   0.0142   0.0286   0.0088  -0.0132  -0.0215   0.30    1.5
2018/03/06 01:51:21.400   44.565378577 -123.271964830    49.3885   2   5   0.0214   0.0142   0.0285   0.0087  -0.0132  -0.0214   0.40    1.3
2018/03/06 01:51:21.500   44.565378612 -123.271964806    49.3798   2   5   0.0213   0.0142   0.0284   0.0087  -0.0132  -0.0213   0.50    1.1
2018/03/06 01:51:21.600   44.565378632 -123.271964811    49.3799   2   5   0.0213   0.0142   0.0284   0.0087  -0.0131  -0.0213   0.60    1.5
2018/03/06 01:51:21.700   44.565378600 -123.271964803    49.3822   2   5   0.0213   0.0142   0.0283   0.0086  -0.0131  -0.0213   0.70    1.0
2018/03/06 01:51:21.800   44.565378616 -123.271964805    49.3807   2   5   0.0212   0.0141   0.0283   0.0086  -0.0131  -0.0212   0.80    1.6
2018/03/06 01:51:21.900   44.565372358 -123.271958855    47.9702   1   5   0.0198   0.0123   0.0282   0.0082  -0.0134  -0.0214   0.90    3.1
2018/03/06 01:51:22.000   44.565372272 -123.271958872    47.9777   1   5   0.0194   0.0122   0.0277   0.0079  -0.0130  -0.0209   0.00    4.4
2018/03/06 01:51:22.100   44.565372297 -123.271958871    47.9754   1   5   0.0194   0.0122   0.0277   0.0079  -0.0130  -0.0209   0.10    4.9
2018/03/06 01:51:22.200   44.565372296 -123.271958876    47.9736   1   5   0.0195   0.0122   0.0277   0.0079  -0.0130  -0.0209   0.20    4.3
2018/03/06 01:51:22.300   44.565372316 -123.271958867    47.9705   1   5   0.0195   0.0122   0.0277   0.0079  -0.0131  -0.0210   0.30    3.3
2018/03/06 01:51:22.400   44.565378592 -123.271964852    49.3837   2   5   0.0214   0.0142   0.0285   0.0087  -0.0132  -0.0214   0.40    2.6
2018/03/06 01:51:22.500   44.565378551 -123.271964869    49.3876   2   5   0.0213   0.0142   0.0284   0.0087  -0.0131  -0.0213   0.50    2.1
2018/03/06 01:51:22.600   44.565378577 -123.271964875    49.3843   2   5   0.0213   0.0142   0.0283   0.0086  -0.0131  -0.0213   0.60    1.9
2018/03/06 01:51:22.700   44.565378578 -123.271964869    49.3826   2   5   0.0213   0.0142   0.0283   0.0086  -0.0131  -0.0212   0.70    1.9
2018/03/06 01:51:22.800   44.565378560 -123.271964880    49.3868   2   5   0.0212   0.0141   0.0283   0.0086  -0.0131  -0.0212   0.80    1.7